[{"card_no": "EV046", "title": "郑庄公·克段于鄢", "dynasty": "春秋", "year": -722, "location": "鄢陵", "lat": 34.0852, "lng": 114.1861, "description": "郑庄公设计击败弟弟共叔段", "rarity": 3, "high": "郑庄公", "mid": "共叔段", "low": "武姜"}, {"card_no": "EV047", "title": "繻葛·郑伯箭中王肩", "dynasty": "春秋", "year": -707, "location": "繻葛", "lat": 34.7152, "lng": 113.3823, "description": "郑庄公率军抗周，射中周桓王肩膀", "rarity": 4, "high": "郑庄公", "mid": "周桓王", "low": "士兵"}, {"card_no": "EV048", "title": "齐鲁·长勺之战", "dynasty": "春秋", "year": -684, "location": "长勺", "lat": 36.2833, "lng": 118.35, "description": "曹刿论战，一鼓作气再而衰三而竭", "rarity": 3, "high": "曹刿", "mid": "齐桓公", "low": "齐军士兵"}, {"card_no": "EV049", "title": "重耳·流亡十九年", "dynasty": "春秋", "year": -655, "location": "列国", "lat": 35.0, "lng": 113.0, "description": "晋公子重耳流亡列国十九年", "rarity": 3, "high": "重耳", "mid": "介子推", "low": "楚成王"}, {"card_no": "EV050", "title": "城濮·晋文公退避三舍", "dynasty": "春秋", "year": -632, "location": "城濮", "lat": 33.9755, "lng": 115.8171, "description": "晋文公退避三舍，大败楚军", "rarity": 4, "high": "晋文公", "mid": "子玉", "low": "重耳随从"}, {"card_no": "EV051", "title": "践土·晋文公称霸", "dynasty": "春秋", "year": -632, "location": "践土", "lat": 34.6912, "lng": 113.5215, "description": "晋文公称霸中原", "rarity": 4, "high": "晋文公", "mid": "周襄王", "low": "郑文公"}, {"card_no": "EV052", "title": "秦穆公·用由余灭西戎", "dynasty": "春秋", "year": -623, "location": "西戎", "lat": 37.0, "lng": 107.0, "description": "秦穆公用由余之谋，灭西戎十二国", "rarity": 3, "high": "秦穆公", "mid": "由余", "low": "西戎王"}, {"card_no": "EV053", "title": "崤山·秦师全军覆没", "dynasty": "春秋", "year": -627, "location": "崤山", "lat": 34.4833, "lng": 111.3833, "description": "晋襄公在崤山设伏，全歼秦军三师", "rarity": 3, "high": "晋襄公", "mid": "孟明视", "low": "崤山百姓"}, {"card_no": "EV054", "title": "赵盾·董狐直笔", "dynasty": "春秋", "year": -607, "location": "绛", "lat": 35.7515, "lng": 111.5937, "description": "晋国大夫赵盾被董狐记载为弑君", "rarity": 3, "high": "赵盾", "mid": "董狐", "low": "晋灵公"}, {"card_no": "EV055", "title": "赵氏·赵氏孤儿", "dynasty": "春秋", "year": -597, "location": "下宫", "lat": 37.4285, "lng": 112.733, "description": "屠岸贾灭赵氏，程婴舍子保孤", "rarity": 4, "high": "程婴", "mid": "赵武", "low": "屠岸贾"}, {"card_no": "EV056", "title": "楚庄王·问鼎中原", "dynasty": "春秋", "year": -606, "location": "洛邑", "lat": 34.7519, "lng": 112.4542, "description": "楚庄王北伐至洛水，问鼎之大小轻重", "rarity": 4, "high": "楚庄王", "mid": "王孙满", "low": "周大夫"}, {"card_no": "EV057", "title": "邲·楚庄王战胜晋军", "dynasty": "春秋", "year": -597, "location": "邲", "lat": 34.7833, "lng": 113.65, "description": "晋楚邲之战，楚国大胜，中原霸权易手", "rarity": 4, "high": "楚庄王", "mid": "荀林父", "low": "晋军士兵"}, {"card_no": "EV058", "title": "吴楚·长岸之战", "dynasty": "春秋", "year": -570, "location": "长岸", "lat": 31.45, "lng": 119.9, "description": "吴国使用火攻战术，大败楚军", "rarity": 2, "high": "吴王", "mid": "楚司马", "low": "吴国士兵"}, {"card_no": "EV059", "title": "同盟·弭兵之会", "dynasty": "春秋", "year": -546, "location": "宋国", "lat": 34.3833, "lng": 115.65, "description": "华元促晋楚弭兵，中原和平四十年", "rarity": 3, "high": "华元", "mid": "晋国使臣", "low": "楚国使臣"}, {"card_no": "EV060", "title": "吴军·破楚郢都", "dynasty": "春秋", "year": -506, "location": "郢都", "lat": 30.5833, "lng": 112.1833, "description": "吴王阖闾以孙武为将，攻破楚国郢都", "rarity": 4, "high": "吴王阖闾", "mid": "孙武", "low": "楚昭王"}, {"card_no": "EV061", "title": "黄池·吴王夫差称霸", "dynasty": "春秋", "year": -482, "location": "黄池", "lat": 33.65, "lng": 115.1, "description": "夫差北上黄池会盟，与晋国争长", "rarity": 3, "high": "吴王夫差", "mid": "越王勾践", "low": "吴国大夫"}, {"card_no": "EV062", "title": "勾践·卧薪尝胆", "dynasty": "春秋", "year": -473, "location": "会稽", "lat": 30.2833, "lng": 120.15, "description": "越王勾践灭吴，夫差求和不成自杀", "rarity": 4, "high": "越王勾践", "mid": "范蠡", "low": "夫差"}, {"card_no": "EV063", "title": "孔子·周游列国", "dynasty": "春秋", "year": -497, "location": "列国", "lat": 35.5, "lng": 116.0, "description": "孔子率弟子周游列国，厄于陈蔡", "rarity": 4, "high": "孔子", "mid": "颜回", "low": "各国君主"}, {"card_no": "EV064", "title": "夹谷·孔子相礼", "dynasty": "春秋", "year": -500, "location": "夹谷", "lat": 35.5833, "lng": 118.0, "description": "孔子以礼相折齐国，夹谷会盟", "rarity": 3, "high": "孔子", "mid": "齐景公", "low": "齐国莱人"}, {"card_no": "EV065", "title": "鲁国·墮三都失败", "dynasty": "春秋", "year": -498, "location": "曲阜", "lat": 35.5967, "lng": 116.9912, "description": "孔子为鲁司寇，墮三都失败，去鲁周游", "rarity": 3, "high": "孔子", "mid": "鲁定公", "low": "三桓"}]