[{"card_no": "EV031", "title": "黄河·大禹治水", "dynasty": "先秦", "year": -2100, "location": "黄河流域", "lat": 35.7563, "lng": 114.3523, "description": "大禹疏导江河，三过家门而不入，开启夏朝文明", "rarity": 4, "high": "帝王", "mid": "平民", "low": "方士"}, {"card_no": "EV032", "title": "涂山·夏启继位", "dynasty": "先秦", "year": -2000, "location": "涂山", "lat": 32.6276, "lng": 116.9748, "description": "禹传位于启，家天下之始", "rarity": 3, "high": "贵族", "mid": "巫祝", "low": "方国使节"}, {"card_no": "EV033", "title": "钧台·启享万邦", "dynasty": "先秦", "year": -1990, "location": "钧台", "lat": 34.7872, "lng": 113.6518, "description": "夏启大会诸侯于钧台，中国进入青铜时代", "rarity": 2, "high": "诸侯", "mid": "乐师", "low": "青铜匠"}, {"card_no": "EV034", "title": "斟鄩·羿代夏政", "dynasty": "先秦", "year": -1940, "location": "斟鄩", "lat": 35.2962, "lng": 113.2279, "description": "后羿趁夏王太康出游，篡夺夏政", "rarity": 3, "high": "太康", "mid": "后羿", "low": "老臣"}, {"card_no": "EV035", "title": "商丘·商汤革命", "dynasty": "先秦", "year": -1600, "location": "商丘", "lat": 34.7458, "lng": 115.6657, "description": "成汤伐夏，鸣条之战，商朝建立", "rarity": 4, "high": "成汤", "mid": "伊尹", "low": "夏桀"}, {"card_no": "EV036", "title": "亳都·盘庚迁殷", "dynasty": "先秦", "year": -1300, "location": "亳都", "lat": 36.1026, "lng": 114.3936, "description": "盘庚迁都于殷，商朝中兴", "rarity": 3, "high": "盘庚", "mid": "贵族", "low": "平民"}, {"card_no": "EV037", "title": "殷墟·武丁盛世", "dynasty": "先秦", "year": -1250, "location": "殷墟", "lat": 36.11, "lng": 114.35, "description": "武丁在位五十九年，商朝鼎盛", "rarity": 3, "high": "武丁", "mid": "妇好", "low": "贞人"}, {"card_no": "EV038", "title": "牧野·武王伐纣", "dynasty": "先秦", "year": -1046, "location": "牧野", "lat": 33.4286, "lng": 115.3819, "description": "周武王伐商，纣王鹿台自焚，商周换代", "rarity": 4, "high": "周武王", "mid": "纣王", "low": "姜子牙"}, {"card_no": "EV039", "title": "镐京·周公制礼", "dynasty": "先秦", "year": -1040, "location": "镐京", "lat": 34.2062, "lng": 108.7368, "description": "周公姬旦制礼作乐，建立宗法制度", "rarity": 4, "high": "周公", "mid": "成王", "low": "诸侯"}, {"card_no": "EV040", "title": "成周·分封天下", "dynasty": "先秦", "year": -1035, "location": "成周", "lat": 34.7651, "lng": 112.4539, "description": "周成王封邦建国，七十一诸侯", "rarity": 3, "high": "周公", "mid": "新封诸侯", "low": "殷遗民"}, {"card_no": "EV041", "title": "昭王·南征荆楚", "dynasty": "先秦", "year": -985, "location": "汉水流域", "lat": 32.01, "lng": 112.2, "description": "周昭王南征荆楚，丧师六军", "rarity": 2, "high": "昭王", "mid": "楚王", "low": "士兵"}, {"card_no": "EV042", "title": "厉王·国人暴动", "dynasty": "先秦", "year": -841, "location": "镐京", "lat": 34.2062, "lng": 108.7368, "description": "周厉王暴虐，国人暴动，厉王奔彘", "rarity": 4, "high": "周厉王", "mid": "召公", "low": "国人"}, {"card_no": "EV043", "title": "共和·周召共和", "dynasty": "先秦", "year": -841, "location": "镐京", "lat": 34.2062, "lng": 108.7368, "description": "周公、召公共同执政十四年", "rarity": 3, "high": "周公", "mid": "召公", "low": "平民"}, {"card_no": "EV044", "title": "幽王·烽火戏诸侯", "dynasty": "先秦", "year": -771, "location": "骊山", "lat": 34.4967, "lng": 109.2108, "description": "周幽王烽火戏诸侯，犬戎入侵，西周亡", "rarity": 4, "high": "周幽王", "mid": "褒姒", "low": "申侯"}, {"card_no": "EV045", "title": "平王·东迁洛邑", "dynasty": "先秦", "year": -770, "location": "洛邑", "lat": 34.7519, "lng": 112.4542, "description": "周平王东迁洛邑，东周开始", "rarity": 3, "high": "周平王", "mid": "郑庄公", "low": "老贵族"}]